<?xml version="1.0" encoding="UTF-8"?>
<kml xmlns="http://earth.google.com/kml/2.0">
    <Document>
        <Style id="z1">
            <IconStyle>
                <Icon>
                    <href>http://www.google.com/intl/en_us/mapfiles/ms/micons/blue-dot.png</href>
                </Icon>
            </IconStyle>
        </Style>
        <Placemark>
            <name>LVL</name>
            <styleUrl>#z1</styleUrl>
            <Point>
                <coordinates>-118.28308,34.02165</coordinates>
            </Point>
        </Placemark>
        <Placemark>
            <name>RSE</name>
            <styleUrl>#z1</styleUrl>
            <Point>
                <coordinates>-118.28392,34.02192</coordinates>
            </Point>
        </Placemark>
        <Placemark>
            <name>DOH</name>
            <styleUrl>#z1</styleUrl>
            <Point>
                <coordinates>-118.28389,34.02009</coordinates>
            </Point>
        </Placemark>
        <Placemark>
            <name>EAC</name>
            <styleUrl>#z1</styleUrl>
            <Point>
                <coordinates>-118.28598,34.02006</coordinates>
            </Point>
        </Placemark>
        <Placemark>
            <name>RTH</name>
            <styleUrl>#z1</styleUrl>
            <Point>
                <coordinates>-118.28668,34.02014</coordinates>
            </Point>
        </Placemark>
        <Placemark>
            <name>VSE</name>
            <styleUrl>#z1</styleUrl>
            <Point>
                <coordinates>-118.28941,34.01920</coordinates>
            </Point>
        </Placemark>
        <Placemark>
            <name>CLP</name>
            <styleUrl>#z1</styleUrl>
            <Point>
                <coordinates>-118.28857,34.01919</coordinates>
            </Point>
        </Placemark>
        <Placemark>
            <name>ASC</name>
            <styleUrl>#z1</styleUrl>
            <Point>
                <coordinates>-118.28630,34.02182</coordinates>
            </Point>
        </Placemark>
        <Placemark>
            <name>URC</name>
            <styleUrl>#z1</styleUrl>
            <Point>
                <coordinates>-118.28489,34.02310</coordinates>
            </Point>
        </Placemark>
        <Placemark>
            <name>JBS</name>
            <styleUrl>#z1</styleUrl>
            <Point>
                <coordinates>-118.28887,34.02482</coordinates>
            </Point>
        </Placemark>
        <Placemark>
            <name>TTT</name>
            <styleUrl>#z1</styleUrl>
            <Point>
                <coordinates>-118.28543,34.02054</coordinates>
            </Point>
        </Placemark>
        <Placemark>
            <name>UVS</name>
            <styleUrl>#z1</styleUrl>
            <Point>
                <coordinates>-118.28444,34.02451</coordinates>
            </Point>
        </Placemark>
        <Placemark>
            <name>HOM</name>
            <styleUrl>#z1</styleUrl>
            <Point>
                <coordinates>-118.28734,34.03275</coordinates>
            </Point>
        </Placemark>
    </Document>
</kml>